{
"type": "FeatureCollection",
"features": [
{ "type": "Feature", "properties": { "name": "Govindghat", "lat": 27.4402643, "long": 77.7131976, "title": "Govindghat", "description": "ta ta ta" }, "geometry": { "type": "Point", "coordinates": [ 77.7131976, 27.4402643 ] } },
{ "type": "Feature", "properties": { "name": "Badi Bhitar Baithak", "lat": 27.4367551, "long": 77.721315, "title": "Badi Bhitar Baithak", "description": "ba bababa" }, "geometry": { "type": "Point", "coordinates": [ 77.721315, 27.4367551 ] } },
{ "type": "Feature", "properties": { "name": "Shayya Mandir", "lat": 27.4367551, "long": 77.721315, "title": "", "description": "" }, "geometry": { "type": "Point", "coordinates": [ 77.721315, 27.4367551 ] } },
{ "type": "Feature", "properties": { "name": "Bansivat", "lat": 27.5861957, "long": 77.7012563, "title": "", "description": "" }, "geometry": { "type": "Point", "coordinates": [ 77.7012563, 27.5861957 ] } },
{ "type": "Feature", "properties": { "name": "Vishramghat", "lat": 27.5043082, "long": 77.6848244, "title": "", "description": "" }, "geometry": { "type": "Point", "coordinates": [ 77.6848244, 27.5043082 ] } },
{ "type": "Feature", "properties": { "name": "Madhuvan", "lat": 27.461028, "long": 77.6458096, "title": "", "description": "" }, "geometry": { "type": "Point", "coordinates": [ 77.6458096, 27.461028 ] } },
{ "type": "Feature", "properties": { "name": "Kumodvan", "lat": 27.4986057, "long": 77.6262344, "title": "", "description": "" }, "geometry": { "type": "Point", "coordinates": [ 77.6262344, 27.4986057 ] } },
{ "type": "Feature", "properties": { "name": "Bahulavan", "lat": 27.5363703, "long": 77.598623, "title": "", "description": "" }, "geometry": { "type": "Point", "coordinates": [ 77.598623, 27.5363703 ] } },
{ "type": "Feature", "properties": { "name": "Radhakrishna Kund", "lat": 27.525451, "long": 77.4920597, "title": "", "description": "" }, "geometry": { "type": "Point", "coordinates": [ 77.4920597, 27.525451 ] } },
{ "type": "Feature", "properties": { "name": "Mansiganga", "lat": 27.4983071, "long": 77.4640286, "title": "", "description": "" }, "geometry": { "type": "Point", "coordinates": [ 77.4640286, 27.4983071 ] } },
{ "type": "Feature", "properties": { "name": "Parasoli", "lat": 27.4784009, "long": 77.4679575, "title": "", "description": "" }, "geometry": { "type": "Point", "coordinates": [ 77.4679575, 27.4784009 ] } },
{ "type": "Feature", "properties": { "name": "Anyor", "lat": 27.4682806, "long": 77.4389534, "title": "", "description": "" }, "geometry": { "type": "Point", "coordinates": [ 77.4389534, 27.4682806 ] } },
{ "type": "Feature", "properties": { "name": "Govindkund", "lat": 27.4685485, "long": 77.4403331, "title": "", "description": "" }, "geometry": { "type": "Point", "coordinates": [ 77.4403331, 27.4685485 ] } },
{ "type": "Feature", "properties": { "name": "Sundershila", "lat": 27.4746716, "long": 77.4392222, "title": "", "description": "" }, "geometry": { "type": "Point", "coordinates": [ 77.4392222, 27.4746716 ] } },
{ "type": "Feature", "properties": { "name": "Govardhan hill", "lat": 27.47374, "long": 77.443843, "title": "", "description": "" }, "geometry": { "type": "Point", "coordinates": [ 77.443843, 27.47374 ] } },
{ "type": "Feature", "properties": { "name": "Kamvan", "lat": 27.6627627, "long": 77.2579813, "title": "", "description": "" }, "geometry": { "type": "Point", "coordinates": [ 77.2579813, 27.6627627 ] } }
]
}
