{
"type": "FeatureCollection",
"features": [
{ "type": "Feature", "properties": { "name": "Gopi Talav", "lat": 22.369844, "long": 69.1064658, "title": "", "description": "" }, "geometry": { "type": "Point", "coordinates": [ 69.1064658, 22.369844 ] } },
{ "type": "Feature", "properties": { "name": "Bet Shankhoddhar", "lat": 22.4549673, "long": 69.1016798, "title": "", "description": "" }, "geometry": { "type": "Point", "coordinates": [ 69.1016798, 22.4549673 ] } },
{ "type": "Feature", "properties": { "name": "Narayan Sarovar", "lat": 23.677255, "long": 68.5410887, "title": "", "description": "" }, "geometry": { "type": "Point", "coordinates": [ 68.5410887, 23.677255 ] } },
{ "type": "Feature", "properties": { "name": "Junagadh", "lat": 21.5255011, "long": 70.4864712, "title": "", "description": "" }, "geometry": { "type": "Point", "coordinates": [ 70.4864712, 21.5255011 ] } },
{ "type": "Feature", "properties": { "name": "Prabhas (Somnath)", "lat": 20.8874624, "long": 70.4133671, "title": "", "description": "" }, "geometry": { "type": "Point", "coordinates": [ 70.4133671, 20.8874624 ] } },
{ "type": "Feature", "properties": { "name": "Madhavpur", "lat": 21.2566044, "long": 69.959072, "title": "", "description": "" }, "geometry": { "type": "Point", "coordinates": [ 69.959072, 21.2566044 ] } },
{ "type": "Feature", "properties": { "name": "Gupta Prayag (Junagadh)", "lat": 20.7832205, "long": 71.019781, "title": "", "description": "" }, "geometry": { "type": "Point", "coordinates": [ 71.019781, 20.7832205 ] } },
{ "type": "Feature", "properties": { "name": "Tagadi", "lat": 22.296772, "long": 71.9441323, "title": "", "description": "" }, "geometry": { "type": "Point", "coordinates": [ 71.9441323, 22.296772 ] } },
{ "type": "Feature", "properties": { "name": "Naroda", "lat": 23.0723953, "long": 72.6496035, "title": "", "description": "" }, "geometry": { "type": "Point", "coordinates": [ 72.6496035, 23.0723953 ] } },
{ "type": "Feature", "properties": { "name": "Godhra", "lat": 22.7708315, "long": 73.6075422, "title": "", "description": "" }, "geometry": { "type": "Point", "coordinates": [ 73.6075422, 22.7708315 ] } },
{ "type": "Feature", "properties": { "name": "Kheralu", "lat": 23.8853129, "long": 72.6162293, "title": "", "description": "" }, "geometry": { "type": "Point", "coordinates": [ 72.6162293, 23.8853129 ] } },
{ "type": "Feature", "properties": { "name": "Siddhpur", "lat": 23.9108773, "long": 72.3639957, "title": "", "description": "" }, "geometry": { "type": "Point", "coordinates": [ 72.3639957, 23.9108773 ] } }
]
}
