{
"type": "FeatureCollection",
"features": [
{ "type": "Feature", "properties": { "name": "Padmanabh", "lat": 8.4827832, "long": 76.9414019, "title": "", "description": "" }, "geometry": { "type": "Point", "coordinates": [ 76.9414019, 8.4827832 ] } },
{ "type": "Feature", "properties": { "name": "Janardan Kshetra", "lat": 8.7352447, "long": 76.7125407, "title": "", "description": "" }, "geometry": { "type": "Point", "coordinates": [ 76.7125407, 8.7352447 ] } },
{ "type": "Feature", "properties": { "name": "Vidyanagar", "lat": 15.3343429, "long": 76.459547, "title": "", "description": "" }, "geometry": { "type": "Point", "coordinates": [ 76.459547, 15.3343429 ] } },
{ "type": "Feature", "properties": { "name": "Totadri", "lat": 8.500155, "long": 77.6426009, "title": "", "description": "" }, "geometry": { "type": "Point", "coordinates": [ 77.6426009, 8.500155 ] } },
{ "type": "Feature", "properties": { "name": "Darvasen", "lat": 9.3639, "long": 78.8395, "title": "", "description": "" }, "geometry": { "type": "Point", "coordinates": [ 78.8395, 9.3639 ] } },
{ "type": "Feature", "properties": { "name": "Surat", "lat": 21.2234606, "long": 72.8492433, "title": "", "description": "" }, "geometry": { "type": "Point", "coordinates": [ 72.8492433, 21.2234606 ] } },
{ "type": "Feature", "properties": { "name": "Bharuch", "lat": 21.699705, "long": 72.9876113, "title": "", "description": "" }, "geometry": { "type": "Point", "coordinates": [ 72.9876113, 21.699705 ] } },
{ "type": "Feature", "properties": { "name": "Morbi", "lat": 22.8166199, "long": 70.8433283, "title": "", "description": "" }, "geometry": { "type": "Point", "coordinates": [ 70.8433283, 22.8166199 ] } },
{ "type": "Feature", "properties": { "name": "Jamnagar", "lat": 22.4584942, "long": 70.0932983, "title": "", "description": "" }, "geometry": { "type": "Point", "coordinates": [ 70.0932983, 22.4584942 ] } },
{ "type": "Feature", "properties": { "name": "Jamkhambhaliya", "lat": 22.341486, "long": 69.7427192, "title": "", "description": "" }, "geometry": { "type": "Point", "coordinates": [ 69.7427192, 22.341486 ] } },
{ "type": "Feature", "properties": { "name": "Pindtarak", "lat": 22.2530392, "long": 69.2468922, "title": "", "description": "" }, "geometry": { "type": "Point", "coordinates": [ 69.2468922, 22.2530392 ] } },
{ "type": "Feature", "properties": { "name": "Mul Gomti", "lat": 22.2375312, "long": 68.9707322, "title": "", "description": "" }, "geometry": { "type": "Point", "coordinates": [ 68.9707322, 22.2375312 ] } },
{ "type": "Feature", "properties": { "name": "Harikund, Dwarka", "lat": 22.2370758, "long": 68.9674102, "title": "", "description": "" }, "geometry": { "type": "Point", "coordinates": [ 68.9674102, 22.2370758 ] } }
]
}
