{
"type": "FeatureCollection",
"features": [
{ "type": "Feature", "properties": { "name": "Kamvan", "lat": 27.6627627, "long": 77.2579813, "title": "", "description": "" }, "geometry": { "type": "Point", "coordinates": [ 77.2579813, 27.6627627 ] } },
{ "type": "Feature", "properties": { "name": "Ghewarvan", "lat": 27.6470532, "long": 77.3670194, "title": "", "description": "" }, "geometry": { "type": "Point", "coordinates": [ 77.3670194, 27.6470532 ] } },
{ "type": "Feature", "properties": { "name": "Sanketvan", "lat": 27.6468931, "long": 77.3674822, "title": "", "description": "" }, "geometry": { "type": "Point", "coordinates": [ 77.3674822, 27.6468931 ] } },
{ "type": "Feature", "properties": { "name": "Nandgam", "lat": 27.7110986, "long": 77.3833132, "title": "", "description": "" }, "geometry": { "type": "Point", "coordinates": [ 77.3833132, 27.7110986 ] } },
{ "type": "Feature", "properties": { "name": "Kokilavan", "lat": 27.7488828, "long": 77.3923169, "title": "", "description": "" }, "geometry": { "type": "Point", "coordinates": [ 77.3923169, 27.7488828 ] } },
{ "type": "Feature", "properties": { "name": "Bhandirvan", "lat": 27.6908423, "long": 77.7091363, "title": "", "description": "" }, "geometry": { "type": "Point", "coordinates": [ 77.7091363, 27.6908423 ] } },
{ "type": "Feature", "properties": { "name": "Mansarovar (Makhan)", "lat": 27.6294361, "long": 77.7108005, "title": "", "description": "" }, "geometry": { "type": "Point", "coordinates": [ 77.7108005, 27.6294361 ] } },
{ "type": "Feature", "properties": { "name": "Sukar kshetra (Soramji\/Sauroji)", "lat": 27.8826428, "long": 78.7387769, "title": "", "description": "" }, "geometry": { "type": "Point", "coordinates": [ 78.7387769, 27.8826428 ] } },
{ "type": "Feature", "properties": { "name": "Chitrakut", "lat": 25.1793371, "long": 80.8647833, "title": "", "description": "" }, "geometry": { "type": "Point", "coordinates": [ 80.8647833, 25.1793371 ] } },
{ "type": "Feature", "properties": { "name": "Ayodhya", "lat": 26.7898124, "long": 82.1816582, "title": "", "description": "" }, "geometry": { "type": "Point", "coordinates": [ 82.1816582, 26.7898124 ] } },
{ "type": "Feature", "properties": { "name": "Naimisharanya", "lat": 27.3447887, "long": 80.4842685, "title": "", "description": "" }, "geometry": { "type": "Point", "coordinates": [ 80.4842685, 27.3447887 ] } },
{ "type": "Feature", "properties": { "name": "Kashi-1", "lat": 25.3070813, "long": 83.0013688, "title": "", "description": "" }, "geometry": { "type": "Point", "coordinates": [ 83.0013688, 25.3070813 ] } },
{ "type": "Feature", "properties": { "name": "Kashi-2", "lat": 25.297326, "long": 83.0067817, "title": "", "description": "" }, "geometry": { "type": "Point", "coordinates": [ 83.0067817, 25.297326 ] } },
{ "type": "Feature", "properties": { "name": "Harihar Kshetra (Sonpur) Baithakji Hajipur", "lat": 25.6812089, "long": 85.2028975, "title": "", "description": "" }, "geometry": { "type": "Point", "coordinates": [ 85.2028975, 25.6812089 ] } },
{ "type": "Feature", "properties": { "name": "Janakpur", "lat": 28.6156586, "long": 79.0722803, "title": "", "description": "" }, "geometry": { "type": "Point", "coordinates": [ 79.0722803, 28.6156586 ] } },
{ "type": "Feature", "properties": { "name": "Gangasagar Sangam", "lat": 21.6384753, "long": 88.0668253, "title": "", "description": "" }, "geometry": { "type": "Point", "coordinates": [ 88.0668253, 21.6384753 ] } },
{ "type": "Feature", "properties": { "name": "Champaranya", "lat": 21.0318612, "long": 81.92318, "title": "", "description": "" }, "geometry": { "type": "Point", "coordinates": [ 81.92318, 21.0318612 ] } }
]
}
