{
"type": "FeatureCollection",
"features": [
{ "type": "Feature", "properties": { "name": "Champaranya Chattighar", "lat": 21.0326761, "long": 81.9198024, "title": "", "description": "" }, "geometry": { "type": "Point", "coordinates": [ 81.9198024, 21.0326761 ] } },
{ "type": "Feature", "properties": { "name": "Jagannathpuri", "lat": 19.8071851, "long": 85.8212592, "title": "", "description": "" }, "geometry": { "type": "Point", "coordinates": [ 85.8212592, 19.8071851 ] } },
{ "type": "Feature", "properties": { "name": "Pandharpur", "lat": 17.6765027, "long": 75.328281, "title": "", "description": "" }, "geometry": { "type": "Point", "coordinates": [ 75.328281, 17.6765027 ] } },
{ "type": "Feature", "properties": { "name": "Nasik", "lat": 20.0005756, "long": 73.7841736, "title": "", "description": "" }, "geometry": { "type": "Point", "coordinates": [ 73.7841736, 20.0005756 ] } },
{ "type": "Feature", "properties": { "name": "Pannakala Nrisimha", "lat": 16.4370458, "long": 80.5692624, "title": "", "description": "" }, "geometry": { "type": "Point", "coordinates": [ 80.5692624, 16.4370458 ] } },
{ "type": "Feature", "properties": { "name": "Tirupati Lakshman Balaji", "lat": 13.6287158, "long": 79.4170302, "title": "", "description": "" }, "geometry": { "type": "Point", "coordinates": [ 79.4170302, 13.6287158 ] } },
{ "type": "Feature", "properties": { "name": "Shrirangji", "lat": 10.8547955, "long": 78.6971582, "title": "", "description": "" }, "geometry": { "type": "Point", "coordinates": [ 78.6971582, 10.8547955 ] } },
{ "type": "Feature", "properties": { "name": "Vishnukanchi", "lat": 12.8173941, "long": 79.7125798, "title": "", "description": "" }, "geometry": { "type": "Point", "coordinates": [ 79.7125798, 12.8173941 ] } },
{ "type": "Feature", "properties": { "name": "Setubandh", "lat": 9.2857909, "long": 79.3040497, "title": "", "description": "" }, "geometry": { "type": "Point", "coordinates": [ 79.3040497, 9.2857909 ] } },
{ "type": "Feature", "properties": { "name": "Malayachal Parvat", "lat": 11.4102, "long": 76.695, "title": "", "description": "" }, "geometry": { "type": "Point", "coordinates": [ 76.695, 11.4102 ] } },
{ "type": "Feature", "properties": { "name": "Lohgadh", "lat": 15.549247, "long": 74.0233613, "title": "", "description": "" }, "geometry": { "type": "Point", "coordinates": [ 74.0233613, 15.549247 ] } },
{ "type": "Feature", "properties": { "name": "Tamraparni River", "lat": 10.8160054, "long": 78.6189869, "title": "", "description": "" }, "geometry": { "type": "Point", "coordinates": [ 78.6189869, 10.8160054 ] } },
{ "type": "Feature", "properties": { "name": "Krishna River", "lat": 17.0542249, "long": 76.9920731, "title": "", "description": "" }, "geometry": { "type": "Point", "coordinates": [ 76.9920731, 17.0542249 ] } },
{ "type": "Feature", "properties": { "name": "Pampa Sarovar", "lat": 15.3539204, "long": 76.477095, "title": "", "description": "" }, "geometry": { "type": "Point", "coordinates": [ 76.477095, 15.3539204 ] } }
]
}
