{
"type": "FeatureCollection",
"features": [
{ "type": "Feature", "properties": { "name": "Avantikapuri (Ujjain)", "lat": 23.2113032, "long": 75.7800758, "title": "", "description": "" }, "geometry": { "type": "Point", "coordinates": [ 75.7800758, 23.2113032 ] } },
{ "type": "Feature", "properties": { "name": "Pushkar", "lat": 26.485931, "long": 74.5504227, "title": "", "description": "" }, "geometry": { "type": "Point", "coordinates": [ 74.5504227, 26.485931 ] } },
{ "type": "Feature", "properties": { "name": "Mahabharat", "lat": 29.9797026, "long": 76.8307196, "title": "", "description": "lorem ipsum" }, "geometry": { "type": "Point", "coordinates": [ 76.8307196, 29.9797026 ] } },
{ "type": "Feature", "properties": { "name": "Haridwar", "lat": 29.951791, "long": 78.1642474, "title": "", "description": "" }, "geometry": { "type": "Point", "coordinates": [ 78.1642474, 29.951791 ] } },
{ "type": "Feature", "properties": { "name": "Badrikashram", "lat": 30.744738, "long": 79.4894206, "title": "", "description": "" }, "geometry": { "type": "Point", "coordinates": [ 79.4894206, 30.744738 ] } },
{ "type": "Feature", "properties": { "name": "Kedarnath", "lat": 30.7352821, "long": 79.0654064, "title": "", "description": "" }, "geometry": { "type": "Point", "coordinates": [ 79.0654064, 30.7352821 ] } },
{ "type": "Feature", "properties": { "name": "Vyas Ashram", "lat": 30.7352821, "long": 79.0654064, "title": "", "description": "" }, "geometry": { "type": "Point", "coordinates": [ 79.0654064, 30.7352821 ] } },
{ "type": "Feature", "properties": { "name": "Himachal Parvat", "lat": 32.4122, "long": 75.9797, "title": "", "description": "" }, "geometry": { "type": "Point", "coordinates": [ 75.9797, 32.4122 ] } },
{ "type": "Feature", "properties": { "name": "Vyas Ganga", "lat": 29.90632, "long": 78.67389, "title": "", "description": "" }, "geometry": { "type": "Point", "coordinates": [ 78.67389, 29.90632 ] } },
{ "type": "Feature", "properties": { "name": "Arail (Prayag)\/Adel", "lat": 25.4024741, "long": 81.8859162, "title": "", "description": "" }, "geometry": { "type": "Point", "coordinates": [ 81.8859162, 25.4024741 ] } },
{ "type": "Feature", "properties": { "name": "Charnat", "lat": 25.1121481, "long": 82.8778328, "title": "", "description": "" }, "geometry": { "type": "Point", "coordinates": [ 82.8778328, 25.1121481 ] } }
]
}
